{
"type": "FeatureCollection",
"name": "Night_Club",
"crs": { "type": "name", "properties": { "name": "urn:ogc:def:crs:OGC:1.3:CRS84" } },
"features": [
{ "type": "Feature", "properties": { "NAME": "TURNTABLES", "ADDRESS": "5802 GEORGIA AVENUE NW", "XCOORD": 397539.03, "YCOORD": 143596.07, "MAR_ID": 253164, "GIS_ID": "temp_16", "SE_ANNO_CAD_DATA": null, "CREATOR": null, "CREATED": null, "EDITOR": null, "EDITED": null, "OBJECTID": 1, "GLOBALID": "{8DA5C3F0-14A6-4395-9C4A-AD466BF5C22C}" }, "geometry": { "type": "Point", "coordinates": [ -77.028396823292312, 38.960276856257245 ] } },
{ "type": "Feature", "properties": { "NAME": "Zeba Bar", "ADDRESS": "3423 14TH STREET NW", "XCOORD": 397184.94, "YCOORD": 140483.78, "MAR_ID": 230874, "GIS_ID": "temp_22", "SE_ANNO_CAD_DATA": null, "CREATOR": null, "CREATED": null, "EDITOR": null, "EDITED": null, "OBJECTID": 2, "GLOBALID": "{2B840B7B-FEA8-4522-8726-A408234029C9}" }, "geometry": { "type": "Point", "coordinates": [ -77.032469520761069, 38.932239406411504 ] } },
{ "type": "Feature", "properties": { "NAME": "THE WONDERLAND BALLROOM", "ADDRESS": "1101 KENYON STREET NW", "XCOORD": 397573.56, "YCOORD": 140228.27, "MAR_ID": 231161, "GIS_ID": "temp_10", "SE_ANNO_CAD_DATA": null, "CREATOR": null, "CREATED": null, "EDITOR": null, "EDITED": null, "OBJECTID": 3, "GLOBALID": "{4E3207CA-89F0-416F-9032-6019AFE43D46}" }, "geometry": { "type": "Point", "coordinates": [ -77.027986504580468, 38.929938852843009 ] } },
{ "type": "Feature", "properties": { "NAME": "THE JAM CELLAR", "ADDRESS": "2437 15TH STREET NW", "XCOORD": 396971.82, "YCOORD": 139401.47, "MAR_ID": 234197, "GIS_ID": "temp_9", "SE_ANNO_CAD_DATA": null, "CREATOR": null, "CREATED": null, "EDITOR": null, "EDITED": null, "OBJECTID": 4, "GLOBALID": "{F626F876-2D01-49A6-A26C-D6F7B88221ED}" }, "geometry": { "type": "Point", "coordinates": [ -77.034922744829132, 38.922488908861574 ] } },
{ "type": "Feature", "properties": { "NAME": "SMOKE & BARREL", "ADDRESS": "2471 18TH STREET NW", "XCOORD": 396336.03, "YCOORD": 139379.24, "MAR_ID": 235595, "GIS_ID": "temp_5", "SE_ANNO_CAD_DATA": null, "CREATOR": null, "CREATED": null, "EDITOR": null, "EDITED": null, "OBJECTID": 5, "GLOBALID": "{8F659DEE-13D3-45FD-8017-4DA2615E9F8F}" }, "geometry": { "type": "Point", "coordinates": [ -77.042254448024408, 38.922286232686488 ] } },
{ "type": "Feature", "properties": { "NAME": "BOSSA BISTRO & LOUNGE", "ADDRESS": "2463 18TH STREET NW", "XCOORD": 396340.93, "YCOORD": 139357.23, "MAR_ID": 235591, "GIS_ID": "temp_30", "SE_ANNO_CAD_DATA": null, "CREATOR": null, "CREATED": null, "EDITOR": null, "EDITED": null, "OBJECTID": 6, "GLOBALID": "{BE969B06-2F62-4586-B40D-4E3FFA9B11F0}" }, "geometry": { "type": "Point", "coordinates": [ -77.042197824889783, 38.922087979919098 ] } },
{ "type": "Feature", "properties": { "NAME": "MADAM'S ORGAN", "ADDRESS": "2461 18TH STREET NW", "XCOORD": 396342.15, "YCOORD": 139351.28, "MAR_ID": 235590, "GIS_ID": "temp_54", "SE_ANNO_CAD_DATA": null, "CREATOR": null, "CREATED": null, "EDITOR": null, "EDITED": null, "OBJECTID": 7, "GLOBALID": "{95B0EEFE-1959-4FF4-A483-11E39A64B8C1}" }, "geometry": { "type": "Point", "coordinates": [ -77.042183724429393, 38.922034385476394 ] } },
{ "type": "Feature", "properties": { "NAME": "GRAND CENTRAL", "ADDRESS": "2447 18TH STREET NW", "XCOORD": 396353.02, "YCOORD": 139320.5, "MAR_ID": 218136, "GIS_ID": "temp_45", "SE_ANNO_CAD_DATA": null, "CREATOR": null, "CREATED": null, "EDITOR": null, "EDITED": null, "OBJECTID": 8, "GLOBALID": "{11375CAD-6925-480A-9CF8-449FDEC70972}" }, "geometry": { "type": "Point", "coordinates": [ -77.042058210703402, 38.921757154466945 ] } },
{ "type": "Feature", "properties": { "NAME": "HABANA VILLAGE", "ADDRESS": "1834 COLUMBIA ROAD NW", "XCOORD": 396258.42, "YCOORD": 139318.55, "MAR_ID": 235389, "GIS_ID": "temp_46", "SE_ANNO_CAD_DATA": null, "CREATOR": null, "CREATED": null, "EDITOR": null, "EDITED": null, "OBJECTID": 9, "GLOBALID": "{AB7E6825-7F6C-409F-9D4E-8D9E05F720CB}" }, "geometry": { "type": "Point", "coordinates": [ -77.043149099941687, 38.921739190507239 ] } },
{ "type": "Feature", "properties": { "NAME": "TIMEHRI", "ADDRESS": "2439 18TH STREET NW", "XCOORD": 396357.78, "YCOORD": 139294.24, "MAR_ID": 235584, "GIS_ID": "temp_13", "SE_ANNO_CAD_DATA": null, "CREATOR": null, "CREATED": null, "EDITOR": null, "EDITED": null, "OBJECTID": 10, "GLOBALID": "{023852B2-3016-496E-AD9E-0C80C69B0907}" }, "geometry": { "type": "Point", "coordinates": [ -77.042003180418362, 38.921520615627863 ] } },
{ "type": "Feature", "properties": { "NAME": "HEAVEN & HELL", "ADDRESS": "2327 18TH STREET NW", "XCOORD": 396392.63, "YCOORD": 139173.94, "MAR_ID": 235600, "GIS_ID": "temp_47", "SE_ANNO_CAD_DATA": null, "CREATOR": null, "CREATED": null, "EDITOR": null, "EDITED": null, "OBJECTID": 11, "GLOBALID": "{F26456BE-7871-4095-9B62-1758DBF8F052}" }, "geometry": { "type": "Point", "coordinates": [ -77.041600669403763, 38.920437057906369 ] } },
{ "type": "Feature", "properties": { "NAME": "DC STAR", "ADDRESS": "2135 QUEENS CHAPEL ROAD NE", "XCOORD": 402393.44, "YCOORD": 139115.14, "MAR_ID": 286671, "GIS_ID": "temp_38", "SE_ANNO_CAD_DATA": null, "CREATOR": null, "CREATED": null, "EDITOR": null, "EDITED": null, "OBJECTID": 12, "GLOBALID": "{428B0550-7FA8-4F47-9B59-FD8A64017BA5}" }, "geometry": { "type": "Point", "coordinates": [ -76.972402537004001, 38.919911515516702 ] } },
{ "type": "Feature", "properties": { "NAME": "ECHOSTAGE", "ADDRESS": "2135 QUEENS CHAPEL ROAD NE", "XCOORD": 402393.44, "YCOORD": 139115.14, "MAR_ID": 286671, "GIS_ID": "temp_42", "SE_ANNO_CAD_DATA": null, "CREATOR": null, "CREATED": null, "EDITOR": null, "EDITED": null, "OBJECTID": 13, "GLOBALID": "{2D806AEC-6303-4EBE-B19A-1BEC6621875D}" }, "geometry": { "type": "Point", "coordinates": [ -76.972402537004001, 38.919911515516702 ] } },
{ "type": "Feature", "properties": { "NAME": "SOUSSI HOOKAH BAR & LOUNGE", "ADDRESS": "2228 18TH STREET NW", "XCOORD": 396368.3, "YCOORD": 139074.26, "MAR_ID": 235469, "GIS_ID": "temp_7", "SE_ANNO_CAD_DATA": null, "CREATOR": null, "CREATED": null, "EDITOR": null, "EDITED": null, "OBJECTID": 14, "GLOBALID": "{AC073A02-741E-4783-93B4-C9A51DC5A558}" }, "geometry": { "type": "Point", "coordinates": [ -77.041880703375327, 38.919539007696272 ] } },
{ "type": "Feature", "properties": { "NAME": "9:30 CLUB", "ADDRESS": "815 V STREET NW", "XCOORD": 397949.9, "YCOORD": 138905.14, "MAR_ID": 285441, "GIS_ID": "temp_23", "SE_ANNO_CAD_DATA": null, "CREATOR": null, "CREATED": null, "EDITOR": null, "EDITED": null, "OBJECTID": 15, "GLOBALID": "{535F01EE-B49F-48D1-94A4-55C375C3558E}" }, "geometry": { "type": "Point", "coordinates": [ -77.023642209769534, 38.918020632567028 ] } },
{ "type": "Feature", "properties": { "NAME": "AQUA", "ADDRESS": "1818 NEW YORK AVENUE NE", "XCOORD": 402020.97, "YCOORD": 138872.09, "MAR_ID": 55416, "GIS_ID": "temp_24", "SE_ANNO_CAD_DATA": null, "CREATOR": null, "CREATED": null, "EDITOR": null, "EDITED": null, "OBJECTID": 16, "GLOBALID": "{E258ABC1-FD00-42D3-AB05-1ACCEBFCB372}" }, "geometry": { "type": "Point", "coordinates": [ -76.976698357943675, 38.917722976457775 ] } },
{ "type": "Feature", "properties": { "NAME": "RED LOUNGE", "ADDRESS": "2013 14TH STREET NW", "XCOORD": 397258.37, "YCOORD": 138845.27, "MAR_ID": 240339, "GIS_ID": "temp_1", "SE_ANNO_CAD_DATA": null, "CREATOR": null, "CREATED": null, "EDITOR": null, "EDITED": null, "OBJECTID": 17, "GLOBALID": "{66B8BF50-0984-446B-A3B9-A6C6AB824E55}" }, "geometry": { "type": "Point", "coordinates": [ -77.031616077425298, 38.917479418245961 ] } },
{ "type": "Feature", "properties": { "NAME": "THE VELVET LOUNGE", "ADDRESS": "915 U STREET NW", "XCOORD": 397860.66, "YCOORD": 138814.9, "MAR_ID": 239442, "GIS_ID": "temp_12", "SE_ANNO_CAD_DATA": null, "CREATOR": null, "CREATED": null, "EDITOR": null, "EDITED": null, "OBJECTID": 18, "GLOBALID": "{F3B84A6B-2301-4DDA-8C4B-64050EBD156A}" }, "geometry": { "type": "Point", "coordinates": [ -77.024670964585752, 38.91720750802002 ] } },
{ "type": "Feature", "properties": { "NAME": "U STREET MUSIC HALL", "ADDRESS": "1115 U STREET NW", "XCOORD": 397591.88, "YCOORD": 138810.97, "MAR_ID": 309088, "GIS_ID": "temp_17", "SE_ANNO_CAD_DATA": null, "CREATOR": null, "CREATED": null, "EDITOR": null, "EDITED": null, "OBJECTID": 19, "GLOBALID": "{F3011EFF-5608-4460-86D6-FA20D4DA17B7}" }, "geometry": { "type": "Point", "coordinates": [ -77.027770246574249, 38.917171409767967 ] } },
{ "type": "Feature", "properties": { "NAME": "LOST SOCIETY", "ADDRESS": "2001 14TH STREET NW", "XCOORD": 397248.69, "YCOORD": 138809.3, "MAR_ID": 240357, "GIS_ID": "temp_52", "SE_ANNO_CAD_DATA": null, "CREATOR": null, "CREATED": null, "EDITOR": null, "EDITED": null, "OBJECTID": 20, "GLOBALID": "{88287971-8277-45BB-81E9-F0C4C616B433}" }, "geometry": { "type": "Point", "coordinates": [ -77.031727553534566, 38.917155358310019 ] } },
{ "type": "Feature", "properties": { "NAME": "TROPICALIA", "ADDRESS": "2001 14TH STREET NW", "XCOORD": 397248.69, "YCOORD": 138809.3, "MAR_ID": 240357, "GIS_ID": "temp_15", "SE_ANNO_CAD_DATA": null, "CREATOR": null, "CREATED": null, "EDITOR": null, "EDITED": null, "OBJECTID": 21, "GLOBALID": "{B6F0FC47-1A47-4411-8BA1-01DC55049774}" }, "geometry": { "type": "Point", "coordinates": [ -77.031727553534566, 38.917155358310019 ] } },
{ "type": "Feature", "properties": { "NAME": "SOLLY'S U ST TAVERN", "ADDRESS": "1942 11TH STREET NW", "XCOORD": 397633.27, "YCOORD": 138769.89, "MAR_ID": 279499, "GIS_ID": "temp_6", "SE_ANNO_CAD_DATA": null, "CREATOR": null, "CREATED": null, "EDITOR": null, "EDITED": null, "OBJECTID": 22, "GLOBALID": "{0D82A397-B0CA-4076-BF0E-E262AE858AD4}" }, "geometry": { "type": "Point", "coordinates": [ -77.027292838079319, 38.916801459943201 ] } },
{ "type": "Feature", "properties": { "NAME": "PURE LOUNGE ", "ADDRESS": "1326 U STREET NW", "XCOORD": 397334.26, "YCOORD": 138769.63, "MAR_ID": 279068, "GIS_ID": "temp_61", "SE_ANNO_CAD_DATA": null, "CREATOR": null, "CREATED": null, "EDITOR": null, "EDITED": null, "OBJECTID": 23, "GLOBALID": "{93A34273-EE17-4BBF-89BC-544ED79D8397}" }, "geometry": { "type": "Point", "coordinates": [ -77.030740694588104, 38.916798261539796 ] } },
{ "type": "Feature", "properties": { "NAME": "CHI CHA LOUNGE", "ADDRESS": "1624 U STREET NW", "XCOORD": 396713.47, "YCOORD": 138766.04, "MAR_ID": 226300, "GIS_ID": "temp_34", "SE_ANNO_CAD_DATA": null, "CREATOR": null, "CREATED": null, "EDITOR": null, "EDITED": null, "OBJECTID": 24, "GLOBALID": "{D364E5FD-F4C3-470A-8B53-F2530DA056EA}" }, "geometry": { "type": "Point", "coordinates": [ -77.037898950741365, 38.916763819087393 ] } },
{ "type": "Feature", "properties": { "NAME": "Penthouse Pool Club", "ADDRESS": "1612 U STREET NW", "XCOORD": 396736.1, "YCOORD": 138763.71, "MAR_ID": 241860, "GIS_ID": "temp_58", "SE_ANNO_CAD_DATA": null, "CREATOR": null, "CREATED": null, "EDITOR": null, "EDITED": null, "OBJECTID": 25, "GLOBALID": "{485156F3-7F6E-4AAC-8EE8-995B015929AA}" }, "geometry": { "type": "Point", "coordinates": [ -77.037637995306383, 38.916742914019906 ] } },
{ "type": "Feature", "properties": { "NAME": "DC9", "ADDRESS": "1940 9TH STREET NW", "XCOORD": 397899.19, "YCOORD": 138760.66, "MAR_ID": 279498, "GIS_ID": "temp_39", "SE_ANNO_CAD_DATA": null, "CREATOR": null, "CREATED": null, "EDITOR": null, "EDITED": null, "OBJECTID": 26, "GLOBALID": "{A19ECDDF-0663-4E64-9A69-DF163B0187B3}" }, "geometry": { "type": "Point", "coordinates": [ -77.024226510073078, 38.916718989046409 ] } },
{ "type": "Feature", "properties": { "NAME": "POLICY", "ADDRESS": "1904 14TH STREET NW", "XCOORD": 397208.43, "YCOORD": 138656.29, "MAR_ID": 218552, "GIS_ID": "temp_59", "SE_ANNO_CAD_DATA": null, "CREATOR": null, "CREATED": null, "EDITOR": null, "EDITED": null, "OBJECTID": 27, "GLOBALID": "{6DB8B0FE-20F5-40F4-84DE-4035E6AFBC5F}" }, "geometry": { "type": "Point", "coordinates": [ -77.032191168082321, 38.915776866330141 ] } },
{ "type": "Feature", "properties": { "NAME": "BLACK CAT ", "ADDRESS": "1811 14TH STREET NW", "XCOORD": 397263.94, "YCOORD": 138523.73, "MAR_ID": 240469, "GIS_ID": "temp_28", "SE_ANNO_CAD_DATA": null, "CREATOR": null, "CREATED": null, "EDITOR": null, "EDITED": null, "OBJECTID": 28, "GLOBALID": "{3EA2D543-B768-46A2-848F-31BB61A315D9}" }, "geometry": { "type": "Point", "coordinates": [ -77.031550568133142, 38.91458289604207 ] } },
{ "type": "Feature", "properties": { "NAME": "ROYAL PALACE", "ADDRESS": "1805 CONNECTICUT AVENUE NW", "XCOORD": 396027.19, "YCOORD": 138505.86, "MAR_ID": 242756, "GIS_ID": "temp_4", "SE_ANNO_CAD_DATA": null, "CREATOR": null, "CREATED": null, "EDITOR": null, "EDITED": null, "OBJECTID": 29, "GLOBALID": "{1E1C7196-60FF-40D3-8894-90A036AE98C5}" }, "geometry": { "type": "Point", "coordinates": [ -77.045810873614258, 38.914417196144086 ] } },
{ "type": "Feature", "properties": { "NAME": "COLBALT", "ADDRESS": "1639 R STREET NW", "XCOORD": 396687.8, "YCOORD": 138326.71, "MAR_ID": 243123, "GIS_ID": "temp_36", "SE_ANNO_CAD_DATA": null, "CREATOR": null, "CREATED": null, "EDITOR": null, "EDITED": null, "OBJECTID": 30, "GLOBALID": "{5B62AC7A-DE64-42BE-943F-943155E66533}" }, "geometry": { "type": "Point", "coordinates": [ -77.038192829496822, 38.912806090736694 ] } },
{ "type": "Feature", "properties": { "NAME": "VEGAS LOUNGE", "ADDRESS": "1415 P STREET NW", "XCOORD": 397170.97, "YCOORD": 138000.2, "MAR_ID": 279146, "GIS_ID": "temp_19", "SE_ANNO_CAD_DATA": null, "CREATOR": null, "CREATED": null, "EDITOR": null, "EDITED": null, "OBJECTID": 31, "GLOBALID": "{27951BB9-9C0D-4C0D-ACB7-65420DCD409C}" }, "geometry": { "type": "Point", "coordinates": [ -77.032620406306989, 38.909866465524082 ] } },
{ "type": "Feature", "properties": { "NAME": "CAFÉ CITRON", "ADDRESS": "1343 CONNECTICUT AVENUE NW", "XCOORD": 396327.44, "YCOORD": 137842.56, "MAR_ID": 285509, "GIS_ID": "temp_31", "SE_ANNO_CAD_DATA": null, "CREATOR": null, "CREATED": null, "EDITOR": null, "EDITED": null, "OBJECTID": 32, "GLOBALID": "{7427B3CF-A6AD-4FF4-8E4D-42E6F2049146}" }, "geometry": { "type": "Point", "coordinates": [ -77.042345285802227, 38.908443269846622 ] } },
{ "type": "Feature", "properties": { "NAME": "KABIN", "ADDRESS": "1337 CONNECTICUT AVENUE NW", "XCOORD": 396337.4, "YCOORD": 137825.96, "MAR_ID": 279096, "GIS_ID": "temp_49", "SE_ANNO_CAD_DATA": null, "CREATOR": null, "CREATED": null, "EDITOR": null, "EDITED": null, "OBJECTID": 33, "GLOBALID": "{890EF971-3C1B-44DA-85F8-FC26D186C4B0}" }, "geometry": { "type": "Point", "coordinates": [ -77.042230362856344, 38.908293772872284 ] } },
{ "type": "Feature", "properties": { "NAME": "MADHATTER", "ADDRESS": "1319 CONNECTICUT AVENUE NW", "XCOORD": 396359.03, "YCOORD": 137783.56, "MAR_ID": 243295, "GIS_ID": "temp_53", "SE_ANNO_CAD_DATA": null, "CREATOR": null, "CREATED": null, "EDITOR": null, "EDITED": null, "OBJECTID": 34, "GLOBALID": "{4601B66C-D5FC-4D31-9940-01F9DB829675}" }, "geometry": { "type": "Point", "coordinates": [ -77.041980754207302, 38.907911908871164 ] } },
{ "type": "Feature", "properties": { "NAME": "DIRTY MARTINI", "ADDRESS": "1223 CONNECTICUT AVENUE NW", "XCOORD": 396424.45, "YCOORD": 137648.32, "MAR_ID": 241771, "GIS_ID": "temp_41", "SE_ANNO_CAD_DATA": null, "CREATOR": null, "CREATED": null, "EDITOR": null, "EDITED": null, "OBJECTID": 35, "GLOBALID": "{5F9ED39D-C76F-40CD-9464-69F767B39064}" }, "geometry": { "type": "Point", "coordinates": [ -77.041225791910378, 38.906693888544403 ] } },
{ "type": "Feature", "properties": { "NAME": "DIRTY BAR", "ADDRESS": "1223 CONNECTICUT AVENUE NW", "XCOORD": 396424.45, "YCOORD": 137648.32, "MAR_ID": 241771, "GIS_ID": "temp_40", "SE_ANNO_CAD_DATA": null, "CREATOR": null, "CREATED": null, "EDITOR": null, "EDITED": null, "OBJECTID": 36, "GLOBALID": "{6B252C48-3CA3-4182-99CC-A231E934F6C8}" }, "geometry": { "type": "Point", "coordinates": [ -77.041225791910378, 38.906693888544403 ] } },
{ "type": "Feature", "properties": { "NAME": "ROSEBAR", "ADDRESS": "1215 CONNECTICUT AVENUE NW", "XCOORD": 396433.43, "YCOORD": 137617.28, "MAR_ID": 241766, "GIS_ID": "temp_3", "SE_ANNO_CAD_DATA": null, "CREATOR": null, "CREATED": null, "EDITOR": null, "EDITED": null, "OBJECTID": 37, "GLOBALID": "{E741C0FE-0AA4-4A92-8E03-7C5065D3E686}" }, "geometry": { "type": "Point", "coordinates": [ -77.041122097798265, 38.906414305887409 ] } },
{ "type": "Feature", "properties": { "NAME": "HEIST", "ADDRESS": "1802 JEFFERSON PLACE NW", "XCOORD": 396339.56, "YCOORD": 137612.62, "MAR_ID": 303475, "GIS_ID": "temp_48", "SE_ANNO_CAD_DATA": null, "CREATOR": null, "CREATED": null, "EDITOR": null, "EDITED": null, "OBJECTID": 38, "GLOBALID": "{A80436C7-B95D-407F-B611-8530AEBC7E5E}" }, "geometry": { "type": "Point", "coordinates": [ -77.042204321837531, 38.906371941031885 ] } },
{ "type": "Feature", "properties": { "NAME": "EIGHTEENTH STREET LOUNGE", "ADDRESS": "1212 18TH STREET NW", "XCOORD": 396359.98, "YCOORD": 137595.94, "MAR_ID": 241288, "GIS_ID": "temp_44", "SE_ANNO_CAD_DATA": null, "CREATOR": null, "CREATED": null, "EDITOR": null, "EDITED": null, "OBJECTID": 39, "GLOBALID": "{3FA064BF-5FE0-407C-94E7-F0BE37C04C65}" }, "geometry": { "type": "Point", "coordinates": [ -77.041968806672301, 38.906221766579051 ] } },
{ "type": "Feature", "properties": { "NAME": "OZIO", "ADDRESS": "1813 M STREET NW", "XCOORD": 396325.86, "YCOORD": 137563.43, "MAR_ID": 243139, "GIS_ID": "temp_56", "SE_ANNO_CAD_DATA": null, "CREATOR": null, "CREATED": null, "EDITOR": null, "EDITED": null, "OBJECTID": 40, "GLOBALID": "{EF2DEF12-EA42-4F0F-B510-27A05DDBA9B3}" }, "geometry": { "type": "Point", "coordinates": [ -77.042362009019811, 38.905928763161214 ] } },
{ "type": "Feature", "properties": { "NAME": "CAMELOT SHOW BAR", "ADDRESS": "1823 M STREET NW", "XCOORD": 396295.3, "YCOORD": 137560.75, "MAR_ID": 241271, "GIS_ID": "temp_32", "SE_ANNO_CAD_DATA": null, "CREATOR": null, "CREATED": null, "EDITOR": null, "EDITED": null, "OBJECTID": 41, "GLOBALID": "{D45E7384-1C7C-4D36-8253-72EC9D0351ED}" }, "geometry": { "type": "Point", "coordinates": [ -77.042714325450476, 38.905904492497044 ] } },
{ "type": "Feature", "properties": { "NAME": "TOKA CAFÉ ", "ADDRESS": "1140 19TH STREET NW", "XCOORD": 396193.86, "YCOORD": 137456.2, "MAR_ID": 241076, "GIS_ID": "temp_14", "SE_ANNO_CAD_DATA": null, "CREATOR": null, "CREATED": null, "EDITOR": null, "EDITED": null, "OBJECTID": 42, "GLOBALID": "{475C36FB-84A4-44D1-9D25-999BDB4EE826}" }, "geometry": { "type": "Point", "coordinates": [ -77.043883262774827, 38.904962236009197 ] } },
{ "type": "Feature", "properties": { "NAME": "L2 LOUNGE", "ADDRESS": "3315 CADY'S ALLEY NW", "XCOORD": 394217.26, "YCOORD": 137442.45, "MAR_ID": 302277, "GIS_ID": "temp_50", "SE_ANNO_CAD_DATA": null, "CREATOR": null, "CREATED": null, "EDITOR": null, "EDITED": null, "OBJECTID": 43, "GLOBALID": "{0A0B1C17-CD7C-4370-98AB-30F02917E0E1}" }, "geometry": { "type": "Point", "coordinates": [ -77.066671356936681, 38.904827588892566 ] } },
{ "type": "Feature", "properties": { "NAME": "BLUES ALLEY", "ADDRESS": "1073 WISCONSIN AVENUE NW", "XCOORD": 394574.16, "YCOORD": 137427.11, "MAR_ID": 273839, "GIS_ID": "temp_29", "SE_ANNO_CAD_DATA": null, "CREATOR": null, "CREATED": null, "EDITOR": null, "EDITED": null, "OBJECTID": 44, "GLOBALID": "{029BBE8D-4A5C-47F4-91F4-C925377867F4}" }, "geometry": { "type": "Point", "coordinates": [ -77.062556545387395, 38.904691676503475 ] } },
{ "type": "Feature", "properties": { "NAME": "BARCODE", "ADDRESS": "1101 17TH STREET NW", "XCOORD": 396692.75, "YCOORD": 137355.36, "MAR_ID": 278813, "GIS_ID": "temp_27", "SE_ANNO_CAD_DATA": null, "CREATOR": null, "CREATED": null, "EDITOR": null, "EDITED": null, "OBJECTID": 45, "GLOBALID": "{50B18F59-8D52-4BB7-AC9B-44FB418A9C75}" }, "geometry": { "type": "Point", "coordinates": [ -77.038131076244625, 38.904055852689304 ] } },
{ "type": "Feature", "properties": { "NAME": "CITIES", "ADDRESS": "1909 K STREET NW", "XCOORD": 396176.13, "YCOORD": 137218.12, "MAR_ID": 243209, "GIS_ID": "temp_35", "SE_ANNO_CAD_DATA": null, "CREATOR": null, "CREATED": null, "EDITOR": null, "EDITED": null, "OBJECTID": 46, "GLOBALID": "{A5B94284-B9AC-49EC-A979-172D7B84B153}" }, "geometry": { "type": "Point", "coordinates": [ -77.044086346239169, 38.902817450379736 ] } },
{ "type": "Feature", "properties": { "NAME": "VENUS", "ADDRESS": "15 K STREET NE", "XCOORD": 399321.23, "YCOORD": 137152.4, "MAR_ID": 62711, "GIS_ID": "temp_20", "SE_ANNO_CAD_DATA": null, "CREATOR": null, "CREATED": null, "EDITOR": null, "EDITED": null, "OBJECTID": 47, "GLOBALID": "{286612F5-B5BF-4336-8BB4-E6F031AF92B5}" }, "geometry": { "type": "Point", "coordinates": [ -77.007827521725417, 38.902233477823358 ] } },
{ "type": "Feature", "properties": { "NAME": "PANORAMA", "ADDRESS": "1424 K STREET NW", "XCOORD": 397136.34, "YCOORD": 137148.94, "MAR_ID": 240268, "GIS_ID": "temp_57", "SE_ANNO_CAD_DATA": null, "CREATOR": null, "CREATED": null, "EDITOR": null, "EDITED": null, "OBJECTID": 48, "GLOBALID": "{7D2BC212-5F60-42B3-9465-E6ED11C0C1AC}" }, "geometry": { "type": "Point", "coordinates": [ -77.033016132965429, 38.902197905413573 ] } },
{ "type": "Feature", "properties": { "NAME": "ARCHIBALD'S", "ADDRESS": "1520 K STREET NW", "XCOORD": 396913.31, "YCOORD": 137142.77, "MAR_ID": 218319, "GIS_ID": "temp_25", "SE_ANNO_CAD_DATA": null, "CREATOR": null, "CREATED": null, "EDITOR": null, "EDITED": null, "OBJECTID": 49, "GLOBALID": "{0F7948A8-0AAD-430D-A9CF-E60BA9862233}" }, "geometry": { "type": "Point", "coordinates": [ -77.035587317630103, 38.90214156887712 ] } },
{ "type": "Feature", "properties": { "NAME": "THE PARK AT FOURTEENTH", "ADDRESS": "920 14TH STREET NW", "XCOORD": 397203.44, "YCOORD": 137117.69, "MAR_ID": 279987, "GIS_ID": "temp_11", "SE_ANNO_CAD_DATA": null, "CREATOR": null, "CREATED": null, "EDITOR": null, "EDITED": null, "OBJECTID": 50, "GLOBALID": "{815919D0-549F-4245-B58A-E71D0E63E92C}" }, "geometry": { "type": "Point", "coordinates": [ -77.032242440031496, 38.901916610342639 ] } },
{ "type": "Feature", "properties": { "NAME": "EDEN", "ADDRESS": "1716 I STREET NW", "XCOORD": 396510.05, "YCOORD": 137022.64, "MAR_ID": 279328, "GIS_ID": "temp_43", "SE_ANNO_CAD_DATA": null, "CREATOR": null, "CREATED": null, "EDITOR": null, "EDITED": null, "OBJECTID": 51, "GLOBALID": "{6D21B23E-B5E4-4ACF-B764-EC612C3B52CB}" }, "geometry": { "type": "Point", "coordinates": [ -77.040235706293117, 38.901057886235996 ] } },
{ "type": "Feature", "properties": { "NAME": "OPERA ULTRALOUNGE", "ADDRESS": "1400 I STREET NW", "XCOORD": 397199.87, "YCOORD": 137019.46, "MAR_ID": 217995, "GIS_ID": "temp_55", "SE_ANNO_CAD_DATA": null, "CREATOR": null, "CREATED": null, "EDITOR": null, "EDITED": null, "OBJECTID": 52, "GLOBALID": "{61819EBB-4B07-4901-9607-E5382252D33A}" }, "geometry": { "type": "Point", "coordinates": [ -77.032283196288887, 38.901031708033756 ] } },
{ "type": "Feature", "properties": { "NAME": "LITTLE MISS WHISKEY'S GOLDEN DOLLAR", "ADDRESS": "1104 H STREET NE", "XCOORD": 400762.09, "YCOORD": 136948.32, "MAR_ID": 74492, "GIS_ID": "temp_51", "SE_ANNO_CAD_DATA": null, "CREATOR": null, "CREATED": null, "EDITOR": null, "EDITED": null, "OBJECTID": 53, "GLOBALID": "{EA0B3230-D854-4F10-9D25-16BD500FBDD2}" }, "geometry": { "type": "Point", "coordinates": [ -76.991216712644857, 38.900394984427386 ] } },
{ "type": "Feature", "properties": { "NAME": "CUBA LIBRE", "ADDRESS": "801 9TH STREET NW", "XCOORD": 397951.37, "YCOORD": 136947.56, "MAR_ID": 285560, "GIS_ID": "temp_37", "SE_ANNO_CAD_DATA": null, "CREATOR": null, "CREATED": null, "EDITOR": null, "EDITED": null, "OBJECTID": 54, "GLOBALID": "{3CCCFBE8-C16A-426D-8542-44DCD7B5C54F}" }, "geometry": { "type": "Point", "coordinates": [ -77.023619418115487, 38.900386080009582 ] } },
{ "type": "Feature", "properties": { "NAME": "ROCK & ROLL HOTEL", "ADDRESS": "1353 H STREET NE", "XCOORD": 401163.56, "YCOORD": 136891.68, "MAR_ID": 286092, "GIS_ID": "temp_2", "SE_ANNO_CAD_DATA": null, "CREATOR": null, "CREATED": null, "EDITOR": null, "EDITED": null, "OBJECTID": 55, "GLOBALID": "{AF1E5C06-0585-4758-935A-1DE0295A7E35}" }, "geometry": { "type": "Point", "coordinates": [ -76.986588558464589, 38.899884311353311 ] } },
{ "type": "Feature", "properties": { "NAME": "RECESS LOUNGE", "ADDRESS": "727 15TH STREET NW", "XCOORD": 397114.74, "YCOORD": 136864.86, "MAR_ID": 218739, "GIS_ID": "temp_62", "SE_ANNO_CAD_DATA": null, "CREATOR": null, "CREATED": null, "EDITOR": null, "EDITED": null, "OBJECTID": 56, "GLOBALID": "{E0ECBA95-7D21-4CC4-B044-A6CFC17C25AA}" }, "geometry": { "type": "Point", "coordinates": [ -77.033263956198354, 38.899638740369646 ] } },
{ "type": "Feature", "properties": { "NAME": "THE HAMILTON", "ADDRESS": "600 14TH STREET NW", "XCOORD": 397200.36, "YCOORD": 136648.98, "MAR_ID": 300970, "GIS_ID": "temp_8", "SE_ANNO_CAD_DATA": null, "CREATOR": null, "CREATED": null, "EDITOR": null, "EDITED": null, "OBJECTID": 57, "GLOBALID": "{FC397063-68C3-4DE5-9382-B506C290E027}" }, "geometry": { "type": "Point", "coordinates": [ -77.032276037227348, 38.897694292102074 ] } },
{ "type": "Feature", "properties": { "NAME": "ULTRABAR ", "ADDRESS": "911 F STREET NW", "XCOORD": 397864.27, "YCOORD": 136644.3, "MAR_ID": 242797, "GIS_ID": "temp_18", "SE_ANNO_CAD_DATA": null, "CREATOR": null, "CREATED": null, "EDITOR": null, "EDITED": null, "OBJECTID": 58, "GLOBALID": "{46C68964-9FB1-4CA9-B22E-DEEA735A2D7A}" }, "geometry": { "type": "Point", "coordinates": [ -77.024622586266773, 38.897653996945031 ] } },
{ "type": "Feature", "properties": { "NAME": "POV", "ADDRESS": "515 15TH STREET NW", "XCOORD": 397103.43, "YCOORD": 136567.81, "MAR_ID": 279820, "GIS_ID": "temp_60", "SE_ANNO_CAD_DATA": null, "CREATOR": null, "CREATED": null, "EDITOR": null, "EDITED": null, "OBJECTID": 59, "GLOBALID": "{1A7E71B5-94B9-40D5-B4D5-A4794B04EB80}" }, "geometry": { "type": "Point", "coordinates": [ -77.033393086690992, 38.896962769110786 ] } },
{ "type": "Feature", "properties": { "NAME": "CAPITOL LOUNGE ", "ADDRESS": "229 PENNSYLVANIA AVENUE SE", "XCOORD": 399787.23, "YCOORD": 135455.4, "MAR_ID": 278137, "GIS_ID": "temp_33", "SE_ANNO_CAD_DATA": null, "CREATOR": null, "CREATED": null, "EDITOR": null, "EDITED": null, "OBJECTID": 60, "GLOBALID": "{06D8FBCB-880D-4934-AD6C-CF84E9B17019}" }, "geometry": { "type": "Point", "coordinates": [ -77.002454688063864, 38.886946512233799 ] } },
{ "type": "Feature", "properties": { "NAME": "BACHELOR'S MILL", "ADDRESS": "1104 8TH STREET SE", "XCOORD": 400455.72, "YCOORD": 134371.92, "MAR_ID": 285834, "GIS_ID": "temp_26", "SE_ANNO_CAD_DATA": null, "CREATOR": null, "CREATED": null, "EDITOR": null, "EDITED": null, "OBJECTID": 61, "GLOBALID": "{0360FFC9-043F-4BC0-A34C-11E51BFDC95F}" }, "geometry": { "type": "Point", "coordinates": [ -76.994750332696469, 38.877186011104364 ] } },
{ "type": "Feature", "properties": { "NAME": "ZIEGFELD'S SECRETS", "ADDRESS": "1824 HALF STREET SW", "XCOORD": 399105.65, "YCOORD": 133294.7, "MAR_ID": 277759, "GIS_ID": "temp_21", "SE_ANNO_CAD_DATA": null, "CREATOR": null, "CREATED": null, "EDITOR": null, "EDITED": null, "OBJECTID": 62, "GLOBALID": "{3EDDA219-F8D3-40AA-9E46-3D47B99AF86B}" }, "geometry": { "type": "Point", "coordinates": [ -77.010307825092127, 38.867481641043852 ] } }
]
}
